{
    "Teams": [
        {   
            "Team": "Stitchface",
            "Location": "Foxborough, MA",
            "Latitude": 41.7558,
            "Longitude": -70.5029,
            "State": "MA",
            "Championships": [2024, 2023],
            "LastChampionshipYear": 2024,
            "icon_url": "img/sf.jpg"
        },
        {
            "Team": "Dread Knights",
            "Location": "Miami, FL",
            "Latitude": 26.6168,
            "Longitude": -80.0684,
            "State": "FL",
            "Championships": [2022, 2018, 2008, 2004],
            "LastChampionshipYear": 2022,
            "icon_url": "img/dk.jpg"
        },
        {
            "Team": "Team Testa",
            "Location": "Northborough, MA",
            "Latitude": 42.2686,
            "Longitude": -72.0850,
            "State": "MA",
            "Championships": [2021],
            "LastChampionshipYear": 2021,
            "icon_url": "img/tt.jpg"
        },
        {
            "Team": "Team Testa",
            "Location": "Northborough, MA",
            "Latitude": 42.09089,
            "Longitude": -70.70969,
            "State": "MA",
            "Championships": [2021],
            "LastChampionshipYear": 2021,
            "icon_url": "img/tt.jpg"
        },
        {
            "Team": "Blank Willows",
            "Location": "Accokeek, MD",
            "Latitude": 38.67065,
            "Longitude": -77.03563,
            "State": "MD",
            "Championships": [2020, 2010],
            "LastChampionshipYear": 2020,
            "icon_url": "img/bw.jpg"
        },
        {
            "Team": "DMZs",
            "Location": "Kingston, MA",
            "Latitude": 42.0034,
            "Longitude": -70.7252,
            "State": "MA",
            "Championships": [2019, 2017, 2015],
            "LastChampionshipYear": 2019,
            "icon_url": "img/dmzs.jpg"
        },
        {
            "Team": "Fish People",
            "Location": "Accokeek, MD",
            "Latitude": 38.67509,
            "Longitude": -76.9900,
            "State": "MD",
            "Championships": [2016, 2014, 2013],
            "LastChampionshipYear": 2016,
            "icon_url": "img/fp.jpg"
        },
        {
            "Team": "Team Hearthrob",
            "Location": "Weymouth, MA",
            "Latitude": 42.2151,
            "Longitude": -70.9518,
            "State": "MA",
            "Championships": [2012],
            "LastChampionshipYear": 2012,
            "icon_url": "img/th.jpg"
        },
        {
            "Team": "Capitol Punishment",
            "Location": "Herndon, VA",
            "Latitude": 38.96430,
            "Longitude": -77.3890,
            "State": "VA",
            "Championships": [2011],
            "LastChampionshipYear": 2011,
            "icon_url": "img/cp.gif"
        },
        {
            "Team": "Brady's Bunch",
            "Location": "Los Angeles, CA",
            "Latitude": 34.05502,
            "Longitude": -118.41356,
            "State": "CA",
            "Championships": [2009, 2002],
            "LastChampionshipYear": 2009,
            "icon_url": "img/bradys.png"
        },
        {
            "Team": "Clownboyz",
            "Location": "Pembroke, MA",
            "Latitude": 42.0715,
            "Longitude": -70.8092,
            "State": "MA",
            "Championships": [2007, 2005, 1999],
            "LastChampionshipYear": 2007,
            "icon_url": "img/cb.jpg"
        },
        {
            "Team": "Wardome",
            "Location": "Walpole, MA",
            "Latitude": 42.1417,
            "Longitude": -71.2495,
            "State": "MA",
            "Championships": [2006, 1998],
            "LastChampionshipYear": 2006,
            "icon_url": "img/wd.jpg"
        },
        {
            "Team": "Spice Girls",
            "Location": "Quincy, MA",
            "Latitude": 42.2555,
            "Longitude": -71.0026,
            "State": "MA",
            "Championships": [2003],
            "LastChampionshipYear": 2003,
            "icon_url": "img/sg.jpg"
        },
        {
            "Team": "Grogan's Heroes",
            "Location": "Daytona, FL",
            "Latitude": 28.5384,
            "Longitude": -81.3789,
            "State": "FL",
            "Championships": [2001,2000],
            "LastChampionshipYear": 2001,
            "icon_url": "img/grogans.jpg"
        },
        {
            "Team": "Dave and The Detours",
            "Location": "Seattle, WA",
            "Latitude": 47.6205,
            "Longitude": -122.3493,
            "State": "WA",
            "Championships": [],
            "LastChampionshipYear": 0,
            "icon_url": "img/dd.jpg"
        },
        {
            "Team": "Tie-Dye Warriors",
            "Location": "Charlotte, NC",
            "Latitude": 42.5584,
            "Longitude": -70.8801,
            "State": "NC",
            "Championships": [],
            "LastChampionshipYear": 0,
            "icon_url": "img/tdw.png"
        },
        {
            "Team": "Portugese Men-o-War",
            "Location": "North Andover, MA",
            "Latitude": 42.6986,
            "Longitude": -71.1318,
            "State": "MA",
            "Championships": [1997],
            "LastChampionshipYear": 1997,
            "icon_url": "img/pmow.jpg"
        },
        {
            "Team": "Fubar",
            "Location": "defaul",
            "Latitude": 41.97845,
            "Longitude": -70.28187,
            "State": "MA",
            "Championships": [1996, 1995],
            "LastChampionshipYear": 1996,
            "icon_url": "img/fubar.png"
        },
        {
            "Team": "Bud Bowl Bound",
            "Location": "defaul",
            "Latitude": 42.08052,
            "Longitude": -70.31986,
            "State": "MA",
            "Championships": [1994],
            "LastChampionshipYear": 1994,
            "icon_url": "img/budbowl.png"
        },
        {
            "Team": "Jack's Packers",
            "Location": "defaul",
            "Latitude": 42.16808,
            "Longitude": -70.39354,
            "State": "MA",
            "Championships": [1993],
            "LastChampionshipYear": 1993,
            "icon_url": "img/jackspack.png"
        },
        {
            "Team": "Copenhagens",
            "Location": "defaul",
            "Latitude": 42.26820,
            "Longitude": -70.47473,
            "State": "MA",
            "Championships": [1992],
            "LastChampionshipYear": 1992,
            "icon_url": "img/copenhagen.png"
        }
    ]
}
